[
  {
    "name": "Lady Nichols Lounge",
    "uuid": 1166258121,
    "location": {
      "lat": 51.511231,
      "long": -3.956455
    },
    "description": "dolor consectetur eiusmod aute in dolore sunt sit do velit"
  },
  {
    "name": "Lady Love Lounge",
    "uuid": 8367122927,
    "location": {
      "lat": 52.541926,
      "long": -3.383682
    },
    "description": "aute proident eiusmod sit ullamco cupidatat id non eiusmod cillum reprehenderit laborum eu"
  },
  {
    "name": "Sir Griffith Suite",
    "uuid": 6677118469,
    "location": {
      "lat": 50.795211,
      "long": -4.019241
    },
    "description": "id aute veniam id cillum ipsum laboris eu voluptate"
  },
  {
    "name": "The Kaufman Suite",
    "uuid": 1169100992,
    "location": {
      "lat": 52.295156,
      "long": -3.191554
    },
    "description": "dolore adipisicing adipisicing qui magna sit consectetur laboris occaecat reprehenderit aute commodo fugiat magna"
  },
  {
    "name": "The Norton Suite",
    "uuid": 4938745376,
    "location": {
      "lat": 51.323971,
      "long": -4.047125
    },
    "description": "ullamco veniam est ad ipsum ullamco do proident veniam"
  },
  {
    "name": "Sir Burnett Lounge",
    "uuid": 4571548505,
    "location": {
      "lat": 51.542897,
      "long": -4.405595
    },
    "description": "culpa adipisicing Lorem eu consequat sit duis fugiat nisi laborum culpa enim eiusmod"
  },
  {
    "name": "Sir Walters Lounge",
    "uuid": 7092691686,
    "location": {
      "lat": 50.707872,
      "long": -4.815793
    },
    "description": "occaecat esse nostrud nulla cupidatat dolor commodo incididunt aute fugiat cupidatat mollit"
  },
  {
    "name": "Lady Campos Lounge",
    "uuid": 7078657615,
    "location": {
      "lat": 52.129052,
      "long": -3.636988
    },
    "description": "velit ut consectetur laboris consectetur exercitation veniam esse cupidatat eiusmod elit non elit est ad"
  },
  {
    "name": "Lady Benjamin Lounge",
    "uuid": 1821073971,
    "location": {
      "lat": 50.990468,
      "long": -3.482934
    },
    "description": "aliquip nostrud nisi fugiat aute ut duis aliquip tempor eiusmod"
  },
  {
    "name": "The Evans Suite",
    "uuid": 2060818769,
    "location": {
      "lat": 51.773448,
      "long": -4.771242
    },
    "description": "voluptate dolor adipisicing et officia nisi cupidatat ipsum sunt incididunt proident in eiusmod ea"
  },
  {
    "name": "Lady Peck Room",
    "uuid": 6417222477,
    "location": {
      "lat": 51.019932,
      "long": -4.679868
    },
    "description": "elit sunt deserunt labore fugiat velit amet excepteur adipisicing magna aliquip fugiat deserunt"
  },
  {
    "name": "The Rocha Room",
    "uuid": 7864347911,
    "location": {
      "lat": 52.344198,
      "long": -4.705968
    },
    "description": "aute excepteur laborum tempor anim esse duis ea laborum"
  },
  {
    "name": "Sir Marshall Lounge",
    "uuid": 7553655796,
    "location": {
      "lat": 50.251862,
      "long": -3.844783
    },
    "description": "exercitation occaecat officia do eiusmod mollit veniam qui ex laborum quis dolor consequat occaecat sint"
  },
  {
    "name": "The Cox Lounge",
    "uuid": 2308999664,
    "location": {
      "lat": 50.470905,
      "long": -3.867897
    },
    "description": "elit pariatur sit aliqua est deserunt cillum Lorem qui amet enim laboris exercitation labore"
  },
  {
    "name": "Lady Gaines Suite",
    "uuid": 3502323243,
    "location": {
      "lat": 50.821605,
      "long": -4.650701
    },
    "description": "incididunt qui ut minim non eiusmod eu nostrud cillum magna aliqua nulla"
  },
  {
    "name": "The Mosley Suite",
    "uuid": 2659823742,
    "location": {
      "lat": 51.501117,
      "long": -4.430435
    },
    "description": "nostrud sunt enim id minim et qui quis non"
  },
  {
    "name": "Sir Harvey Suite",
    "uuid": 2969398981,
    "location": {
      "lat": 52.212008,
      "long": -4.756693
    },
    "description": "duis est eu exercitation deserunt voluptate ut esse voluptate laborum commodo et Lorem sunt aliquip"
  },
  {
    "name": "The Bass Lounge",
    "uuid": 3819447438,
    "location": {
      "lat": 52.072528,
      "long": -3.844971
    },
    "description": "magna ex exercitation est quis esse velit aliquip laborum cillum ullamco veniam"
  },
  {
    "name": "Sir Lewis Room",
    "uuid": 8383925919,
    "location": {
      "lat": 51.739218,
      "long": -3.923791
    },
    "description": "culpa reprehenderit fugiat veniam veniam ea aliqua voluptate exercitation"
  },
  {
    "name": "Lady Bradshaw Suite",
    "uuid": 4583138366,
    "location": {
      "lat": 51.324658,
      "long": -3.044442
    },
    "description": "consequat laborum et esse incididunt ut nostrud dolor esse incididunt"
  },
  {
    "name": "Lady Fuentes Suite",
    "uuid": 6989519212,
    "location": {
      "lat": 50.670783,
      "long": -3.048558
    },
    "description": "laboris consequat laboris ullamco tempor est elit sunt anim mollit culpa"
  },
  {
    "name": "Lord Snow Suite",
    "uuid": 2009425569,
    "location": {
      "lat": 51.618162,
      "long": -3.646948
    },
    "description": "ullamco incididunt ea dolor reprehenderit occaecat ex esse irure qui elit irure dolore"
  },
  {
    "name": "Lord Lloyd Suite",
    "uuid": 5630762468,
    "location": {
      "lat": 52.401831,
      "long": -4.562814
    },
    "description": "ut consequat reprehenderit eiusmod laboris exercitation cupidatat consequat veniam et pariatur dolor duis reprehenderit"
  },
  {
    "name": "The Mann Room",
    "uuid": 6064419638,
    "location": {
      "lat": 51.703644,
      "long": -3.079729
    },
    "description": "enim duis proident velit minim officia magna consequat ut proident"
  },
  {
    "name": "The Torres Room",
    "uuid": 7125435743,
    "location": {
      "lat": 50.426017,
      "long": -3.122452
    },
    "description": "culpa eiusmod aliquip eu non esse nisi dolore mollit ipsum deserunt deserunt commodo quis nisi"
  },
  {
    "name": "Lady Tillman Suite",
    "uuid": 5156297708,
    "location": {
      "lat": 51.935927,
      "long": -4.459797
    },
    "description": "laboris adipisicing tempor nostrud aliqua laborum officia ea tempor et id adipisicing id non"
  },
  {
    "name": "Lord Kennedy Lounge",
    "uuid": 5675418414,
    "location": {
      "lat": 52.407705,
      "long": -3.462968
    },
    "description": "excepteur non adipisicing aliquip duis fugiat aliqua irure ipsum sunt voluptate aliquip reprehenderit ut occaecat"
  },
  {
    "name": "Lady Mckinney Room",
    "uuid": 7049723023,
    "location": {
      "lat": 50.529435,
      "long": -3.956758
    },
    "description": "aliquip et velit occaecat velit velit ea amet ea laboris esse Lorem laboris deserunt"
  },
  {
    "name": "Lady Snider Suite",
    "uuid": 2956961962,
    "location": {
      "lat": 52.120317,
      "long": -3.148967
    },
    "description": "veniam est sint aliquip dolore ipsum eiusmod duis aute dolore labore ipsum"
  },
  {
    "name": "Sir Osborne Lounge",
    "uuid": 6230371965,
    "location": {
      "lat": 52.597657,
      "long": -4.669763
    },
    "description": "magna voluptate anim ad enim incididunt irure ex fugiat ut dolor"
  },
  {
    "name": "Sir Hester Room",
    "uuid": 1613078353,
    "location": {
      "lat": 51.022442,
      "long": -3.868719
    },
    "description": "nulla enim Lorem duis incididunt voluptate consectetur occaecat id ut"
  },
  {
    "name": "Sir Kirk Room",
    "uuid": 1219874439,
    "location": {
      "lat": 52.016391,
      "long": -3.834257
    },
    "description": "laborum ea mollit enim quis duis cupidatat magna ipsum velit et veniam deserunt laborum"
  },
  {
    "name": "Lady David Suite",
    "uuid": 4885607801,
    "location": {
      "lat": 51.174919,
      "long": -4.757222
    },
    "description": "ad irure amet in amet aliquip enim cillum incididunt laborum laboris"
  },
  {
    "name": "The Everett Room",
    "uuid": 9839565781,
    "location": {
      "lat": 50.121826,
      "long": -3.821101
    },
    "description": "nisi esse sit quis nulla est non enim officia consequat duis dolore"
  },
  {
    "name": "Lord Coffey Room",
    "uuid": 1999043566,
    "location": {
      "lat": 50.352284,
      "long": -3.178035
    },
    "description": "amet mollit cillum ex sit consequat velit et quis Lorem"
  },
  {
    "name": "The Carpenter Lounge",
    "uuid": 7927430536,
    "location": {
      "lat": 50.334623,
      "long": -4.707446
    },
    "description": "esse laborum nisi mollit Lorem occaecat tempor consectetur commodo laboris aute duis"
  },
  {
    "name": "Lady Hobbs Room",
    "uuid": 8527091064,
    "location": {
      "lat": 52.390335,
      "long": -3.949956
    },
    "description": "pariatur irure deserunt cupidatat voluptate enim amet pariatur exercitation incididunt"
  },
  {
    "name": "The Hammond Room",
    "uuid": 5909609951,
    "location": {
      "lat": 51.871382,
      "long": -3.797366
    },
    "description": "pariatur qui est consectetur ex dolore nulla eiusmod laborum laboris Lorem est"
  },
  {
    "name": "Sir Gibson Lounge",
    "uuid": 4462837558,
    "location": {
      "lat": 50.215764,
      "long": -3.387825
    },
    "description": "cillum ullamco velit cillum voluptate ipsum aliquip ut sint quis incididunt"
  },
  {
    "name": "Lady Turner Suite",
    "uuid": 7315554624,
    "location": {
      "lat": 52.084252,
      "long": -5.076873
    },
    "description": "aliquip velit laborum irure commodo elit laborum quis anim commodo voluptate velit labore"
  },
  {
    "name": "Sir Cunningham Lounge",
    "uuid": 4456067067,
    "location": {
      "lat": 51.294087,
      "long": -3.194081
    },
    "description": "adipisicing pariatur reprehenderit ullamco ipsum mollit consectetur mollit ea anim ipsum occaecat eu ullamco"
  },
  {
    "name": "Sir Sloan Suite",
    "uuid": 8676852178,
    "location": {
      "lat": 50.266718,
      "long": -4.505799
    },
    "description": "esse elit ipsum cupidatat consequat cillum dolore minim eu laborum eiusmod est"
  },
  {
    "name": "Lady Navarro Room",
    "uuid": 7197046499,
    "location": {
      "lat": 51.461744,
      "long": -3.637173
    },
    "description": "esse irure eiusmod sit esse occaecat velit ipsum exercitation pariatur dolor commodo quis culpa pariatur"
  },
  {
    "name": "Sir Mullen Room",
    "uuid": 1257125267,
    "location": {
      "lat": 51.299867,
      "long": -4.702113
    },
    "description": "incididunt amet non mollit aute deserunt anim ad duis dolore reprehenderit qui"
  },
  {
    "name": "Lady Dennis Lounge",
    "uuid": 9408039962,
    "location": {
      "lat": 50.360748,
      "long": -5.029948
    },
    "description": "nostrud officia dolore incididunt irure culpa duis fugiat dolor officia incididunt"
  },
  {
    "name": "Sir Davidson Suite",
    "uuid": 5005402745,
    "location": {
      "lat": 51.009934,
      "long": -4.084157
    },
    "description": "proident proident incididunt in ut ullamco ea commodo officia dolore nisi"
  },
  {
    "name": "Sir Blevins Lounge",
    "uuid": 7441548256,
    "location": {
      "lat": 50.997173,
      "long": -4.287365
    },
    "description": "ad do aliquip exercitation duis occaecat ad ut est officia"
  },
  {
    "name": "Sir Prince Room",
    "uuid": 5014606418,
    "location": {
      "lat": 51.408128,
      "long": -3.623981
    },
    "description": "ut amet mollit Lorem sunt consectetur in consectetur anim"
  },
  {
    "name": "The Dorsey Lounge",
    "uuid": 8161954399,
    "location": {
      "lat": 51.405133,
      "long": -4.632142
    },
    "description": "sint cupidatat duis laboris irure ex pariatur labore non cupidatat proident excepteur voluptate"
  },
  {
    "name": "Lord Christensen Room",
    "uuid": 7465348748,
    "location": {
      "lat": 52.290825,
      "long": -5.169977
    },
    "description": "quis duis ullamco ex quis cupidatat aliqua magna ipsum amet incididunt consequat culpa"
  }
]